{"countryCode": "CH", "countryName": "Switzerland", "coordinates": [47.5776499,7.5945719], "name": "Lonza Basel Stücki, Switzerland", "toponymName": "Lonza Basel Stücki, Switzerland"}
{"countryCode": "TH", "countryName": "Thailand", "coordinates": [13.7410777,100.5593857], "name": "Lonza Bangkok, Thailand", "toponymName": "Lonza Bangkok, Thailand"}
{"countryCode": "CH", "countryName": "Switzerland", "coordinates": [47.5461078,7.595771], "name": "Lonza Basel, Switzerland", "toponymName": "Lonza Basel, Switzerland"}
{"countryCode": "US", "countryName": "United States of America", "coordinates": [44.0620951,-121.3137075], "name": "Lonza Bend, OR, USA", "toponymName": "Lonza Bend, OR, USA"}
{"countryCode": "BE", "countryName": "Belgium", "coordinates": [51.0927336,4.2623583], "name": "Lonza Bornem, Belgium", "toponymName": "Lonza Bornem, Belgium"}
{"countryCode": "AU", "countryName": "Australia", "coordinates": [-37.8191823,144.8351632], "name": "Lonza Brooklyn, Australia", "toponymName": "Lonza Brooklyn, Australia"}
{"countryCode": "HU", "countryName": "Hungary", "coordinates": [47.4920187,19.0550789], "name": "Lonza Budapest, Hungary", "toponymName": "Lonza Budapest, Hungary"}
{"countryCode": "UK", "countryName": "United Kingdom", "coordinates": [52.83049,-1.6234729], "name": "Lonza Burton upon Trent, United Kingdom", "toponymName": "Lonza Burton upon Trent, United Kingdom"}
